{
  "locations": [
    {
      "id": "loc_majorelle",
      "name": "Jardin Majorelle",
      "address": "Rue Yves Saint Laurent",
      "city": "Marrakech",
      "distance": "0.3 km",
      "isOpen": true,
      "type": "experience",
      "pin": "pin_a",
      "lat": 31.6410,
      "lng": -8.0059,
      "image": "assets/Jardin Majorelle (Activity)/JardinMajorelle 3.jpg",
      "phone": "+212 5 24 31 30 47",
      "hours": "09:00 - 18:00"
    },
    {
      "id": "loc_ysl_museum",
      "name": "Musée Yves Saint Laurent",
      "address": "Avenue Yacoub El Mansour",
      "city": "Marrakech",
      "distance": "0.4 km",
      "isOpen": true,
      "type": "experience",
      "pin": "pin_b",
      "lat": 31.6413,
      "lng": -8.0089,
      "image": "assets/YSL Museum (Activity)/ysl musee 1.jpg",
      "phone": "+212 5 24 29 86 86",
      "hours": "10:00 - 18:00"
    },
    {
      "id": "loc_jemaa",
      "name": "Jemaa el-Fna",
      "address": "Place Jemaa el-Fna",
      "city": "Marrakech",
      "distance": "1.2 km",
      "isOpen": true,
      "type": "experience",
      "pin": "pin_c",
      "lat": 31.6258,
      "lng": -7.9890,
      "image": "assets/images/frame_845083630.png"
    },
    {
      "id": "loc_koutoubia",
      "name": "Koutoubia Mosque",
      "address": "Avenue Mohammed V",
      "city": "Marrakech",
      "distance": "1.0 km",
      "isOpen": true,
      "type": "experience",
      "pin": "pin_a",
      "lat": 31.6248,
      "lng": -7.9994,
      "image": "assets/images/frame_845083630.png"
    },
    {
      "id": "loc_bahia",
      "name": "Bahia Palace",
      "address": "Avenue Imam El Ghazali",
      "city": "Marrakech",
      "distance": "1.6 km",
      "isOpen": true,
      "type": "experience",
      "pin": "pin_b",
      "lat": 31.6213,
      "lng": -7.9806,
      "image": "assets/images/frame_845083630.png"
    },
    {
      "id": "loc_saadian",
      "name": "Saadian Tombs",
      "address": "Rue de la Kasbah",
      "city": "Marrakech",
      "distance": "2.0 km",
      "isOpen": true,
      "type": "experience",
      "pin": "pin_c",
      "lat": 31.6146,
      "lng": -7.9935,
      "image": "assets/images/frame_845083630.png"
    },
    {
      "id": "loc_menara",
      "name": "Menara Gardens",
      "address": "Avenue de la Menara",
      "city": "Marrakech",
      "distance": "3.5 km",
      "isOpen": true,
      "type": "experience",
      "pin": "pin_a",
      "lat": 31.6117,
      "lng": -8.0219,
      "image": "assets/images/frame_845083630.png"
    },
    {
      "id": "loc_le_jardin_secret",
      "name": "Le Jardin Secret",
      "address": "121 Rue Mouassine",
      "city": "Marrakech",
      "distance": "0.9 km",
      "isOpen": true,
      "type": "experience",
      "pin": "pin_b",
      "lat": 31.6332,
      "lng": -7.9886,
      "image": "assets/images/frame_845083630.png"
    },
    {
      "id": "loc_dar_si_said",
      "name": "Dar Si Saïd Museum",
      "address": "8 Rue de la Bahia",
      "city": "Marrakech",
      "distance": "1.7 km",
      "isOpen": true,
      "type": "experience",
      "pin": "pin_c",
      "lat": 31.6217,
      "lng": -7.9838,
      "image": "assets/images/frame_845083630.png"
    },
    {
      "id": "loc_gueliz_store",
      "name": "YSL Beauty Store - Guéliz",
      "address": "Avenue Mohammed V, Guéliz",
      "city": "Marrakech",
      "distance": "2.4 km",
      "isOpen": true,
      "type": "store",
      "pin": "pin_a",
      "lat": 31.6347,
      "lng": -8.0100,
      "image": "assets/images/frame_845083630.png",
      "phone": "+212 5 24 33 44 55",
      "hours": "10:00 - 20:00"
    },
    {
      "id": "loc_cafe_le_studio",
      "name": "Cafe Le Studio",
      "address": "Rue Yves Saint Laurent",
      "city": "Marrakech",
      "distance": "0.5 km",
      "isOpen": true,
      "type": "experience",
      "pin": "pin_b",
      "lat": 31.6409,
      "lng": -8.0080,
      "image": "assets/Cafe Le Studio (Activity)/Cafe 1.jpg",
      "hours": "09:00 - 19:00"
    },
    {
      "id": "loc_la_mamounia",
      "name": "La Mamounia Hotel",
      "address": "Avenue Bab Jdid",
      "city": "Marrakech",
      "distance": "2.8 km",
      "isOpen": true,
      "type": "experience",
      "pin": "pin_a",
      "lat": 31.6159,
      "lng": -8.0122,
      "image": "assets/La Mamounia (Accomodation)/lamamounia 2.jpg",
      "phone": "+212 5 24 38 86 00",
      "hours": "Open 24 hours"
    }
  ]
}
